[
    {
        "id" : 1 ,
        "name" : "Naes Kitchen", 
        "address" : "9520 spectrm dr" ,
        "city" : "Austin",
        "state": "Texas", 
        "zip": "78717",
        "description": "Scratch Kitchen",
        "Hours" : "8:00AM - 2:00PM"

    },

    {
        "id" : 2 ,
        "name" : "Visa Cafe", 
        "address" : "12301 reasearch blvd78759" ,
        "city" : "Austin",
        "state": "Texas", 
        "zip": "78717",
        "description": "Scratch Kitchen",
        "Hours" : "8:00AM - 2:00PM"

    },
    {
        "id" : 3 ,
        "name" : "Capitol Factory", 
        "address" : "701 Brazzos" ,
        "city" : "Austin",
        "state": "Texas", 
        "zip": "78701",
        "description": "CoWorking Space",
        "Hours" : "8:00AM - 2:00PM"

    },
    {
        "id" : 4 ,
        "name" : "Google DownTown Austin", 
        "address" : "500nW 2nd ST" ,
        "city" : "Austin",
        "state": "Texas", 
        "zip": "78701",
        "description": "Technology Center",
        "Hours" : "8:00AM - 2:00PM"

    },
    {
        "id" : 5 ,
        "name" : "Austin Coding Academy", 
        "address" : "314 E Highland Mall Blvd" ,
        "city" : "Austin",
        "state": "Texas", 
        "zip": "78752",
        "description": "Scratch Kitchen",
        "Hours" : "8:00AM - 2:00PM"

    }







]